{
    "type": "FeatureCollection",
    "name": "lekplatser",
    "features": [
        {
            "type": "Feature",
            "geometry": {
                "type": "Point",
                "coordinates": [
                    17.0474,
                    60.6525
                ]
            },
            "properties": {
                "NAMN": "Alborga"
            }
        },
        {
            "type": "Feature",
            "geometry": {
                "type": "Point",
                "coordinates": [
                    17.1666,
                    60.6612
                ]
            },
            "properties": {
                "NAMN": "Apelgatan"
            }
        },
        {
            "type": "Feature",
            "geometry": {
                "type": "Point",
                "coordinates": [
                    17.1671,
                    60.7203
                ]
            },
            "properties": {
                "NAMN": "Arentvägen"
            }
        },
        {
            "type": "Feature",
            "geometry": {
                "type": "Point",
                "coordinates": [
                    17.1427,
                    60.6696
                ]
            },
            "properties": {
                "NAMN": "Brunnsparken"
            }
        },
        {
            "type": "Feature",
            "geometry": {
                "type": "Point",
                "coordinates": [
                    17.1187,
                    60.6656
                ]
            },
            "properties": {
                "NAMN": "Hedvigslund"
            }
        },
        {
            "type": "Feature",
            "geometry": {
                "type": "Point",
                "coordinates": [
                    17.1327,
                    60.9276
                ]
            },
            "properties": {
                "NAMN": "Egnahemsgatan"
            }
        },
        {
            "type": "Feature",
            "geometry": {
                "type": "Point",
                "coordinates": [
                    17.1718,
                    60.6701
                ]
            },
            "properties": {
                "NAMN": "Väpnarparken"
            }
        },
        {
            "type": "Feature",
            "geometry": {
                "type": "Point",
                "coordinates": [
                    17.1688,
                    60.7012
                ]
            },
            "properties": {
                "NAMN": "Forngravarna"
            }
        },
        {
            "type": "Feature",
            "geometry": {
                "type": "Point",
                "coordinates": [
                    17.1622,
                    60.6802
                ]
            },
            "properties": {
                "NAMN": "Jungfruparken"
            }
        },
        {
            "type": "Feature",
            "geometry": {
                "type": "Point",
                "coordinates": [
                    16.9985,
                    60.3987
                ]
            },
            "properties": {
                "NAMN": "Hagalund"
            }
        },
        {
            "type": "Feature",
            "geometry": {
                "type": "Point",
                "coordinates": [
                    17.2187,
                    60.6781
                ]
            },
            "properties": {
                "NAMN": "Holmsund"
            }
        },
        {
            "type": "Feature",
            "geometry": {
                "type": "Point",
                "coordinates": [
                    17.1848,
                    60.6988
                ]
            },
            "properties": {
                "NAMN": "Jonstorp"
            }
        },
        {
            "type": "Feature",
            "geometry": {
                "type": "Point",
                "coordinates": [
                    17.1233,
                    60.677
                ]
            },
            "properties": {
                "NAMN": "Jungfrugatan"
            }
        },
        {
            "type": "Feature",
            "geometry": {
                "type": "Point",
                "coordinates": [
                    17.1925,
                    60.65
                ]
            },
            "properties": {
                "NAMN": "Järvsta"
            }
        },
        {
            "type": "Feature",
            "geometry": {
                "type": "Point",
                "coordinates": [
                    17.0592,
                    60.6668
                ]
            },
            "properties": {
                "NAMN": "Kraftvägen"
            }
        },
        {
            "type": "Feature",
            "geometry": {
                "type": "Point",
                "coordinates": [
                    17.1525,
                    60.67
                ]
            },
            "properties": {
                "NAMN": "Vävareparken"
            }
        },
        {
            "type": "Feature",
            "geometry": {
                "type": "Point",
                "coordinates": [
                    17.1496,
                    60.6625
                ]
            },
            "properties": {
                "NAMN": "Källbäcksparken"
            }
        },
        {
            "type": "Feature",
            "geometry": {
                "type": "Point",
                "coordinates": [
                    17.0816,
                    60.6733
                ]
            },
            "properties": {
                "NAMN": "Lekgränd"
            }
        },
        {
            "type": "Feature",
            "geometry": {
                "type": "Point",
                "coordinates": [
                    17.0947,
                    60.6781
                ]
            },
            "properties": {
                "NAMN": "Lexe"
            }
        },
        {
            "type": "Feature",
            "geometry": {
                "type": "Point",
                "coordinates": [
                    17.0623,
                    60.6697
                ]
            },
            "properties": {
                "NAMN": "Lindesnäsvägen"
            }
        },
        {
            "type": "Feature",
            "geometry": {
                "type": "Point",
                "coordinates": [
                    17.1628,
                    60.6526
                ]
            },
            "properties": {
                "NAMN": "Lövens Tä"
            }
        },
        {
            "type": "Feature",
            "geometry": {
                "type": "Point",
                "coordinates": [
                    17.0099,
                    60.6469
                ]
            },
            "properties": {
                "NAMN": "Markheden"
            }
        },
        {
            "type": "Feature",
            "geometry": {
                "type": "Point",
                "coordinates": [
                    16.997,
                    60.3938
                ]
            },
            "properties": {
                "NAMN": "Mejerivägen"
            }
        },
        {
            "type": "Feature",
            "geometry": {
                "type": "Point",
                "coordinates": [
                    17.1479,
                    60.6676
                ]
            },
            "properties": {
                "NAMN": "Nobelparken"
            }
        },
        {
            "type": "Feature",
            "geometry": {
                "type": "Point",
                "coordinates": [
                    17.1415,
                    60.679
                ]
            },
            "properties": {
                "NAMN": "Nordost"
            }
        },
        {
            "type": "Feature",
            "geometry": {
                "type": "Point",
                "coordinates": [
                    17.1291,
                    60.6795
                ]
            },
            "properties": {
                "NAMN": "Nynäsplan"
            }
        },
        {
            "type": "Feature",
            "geometry": {
                "type": "Point",
                "coordinates": [
                    17.1626,
                    60.7235
                ]
            },
            "properties": {
                "NAMN": "Odalvägen"
            }
        },
        {
            "type": "Feature",
            "geometry": {
                "type": "Point",
                "coordinates": [
                    17.1378,
                    60.6657
                ]
            },
            "properties": {
                "NAMN": "Oskarsparken"
            }
        },
        {
            "type": "Feature",
            "geometry": {
                "type": "Point",
                "coordinates": [
                    17.2341,
                    60.6731
                ]
            },
            "properties": {
                "NAMN": "Rostadsvägen"
            }
        },
        {
            "type": "Feature",
            "geometry": {
                "type": "Point",
                "coordinates": [
                    17.3261,
                    60.6491
                ]
            },
            "properties": {
                "NAMN": "Rönnåsvägen"
            }
        },
        {
            "type": "Feature",
            "geometry": {
                "type": "Point",
                "coordinates": [
                    17.1678,
                    60.7052
                ]
            },
            "properties": {
                "NAMN": "Rösgatan"
            }
        },
        {
            "type": "Feature",
            "geometry": {
                "type": "Point",
                "coordinates": [
                    17.2528,
                    60.6774
                ]
            },
            "properties": {
                "NAMN": "Siriusplan"
            }
        },
        {
            "type": "Feature",
            "geometry": {
                "type": "Point",
                "coordinates": [
                    17.129,
                    60.6594
                ]
            },
            "properties": {
                "NAMN": "Skogsfruparken"
            }
        },
        {
            "type": "Feature",
            "geometry": {
                "type": "Point",
                "coordinates": [
                    16.9977,
                    60.6373
                ]
            },
            "properties": {
                "NAMN": "Snickarvägen"
            }
        },
        {
            "type": "Feature",
            "geometry": {
                "type": "Point",
                "coordinates": [
                    17.2147,
                    60.6635
                ]
            },
            "properties": {
                "NAMN": "Solhjulet"
            }
        },
        {
            "type": "Feature",
            "geometry": {
                "type": "Point",
                "coordinates": [
                    17.1264,
                    60.6747
                ]
            },
            "properties": {
                "NAMN": "Stadsträdgården"
            }
        },
        {
            "type": "Feature",
            "geometry": {
                "type": "Point",
                "coordinates": [
                    17.0812,
                    60.6779
                ]
            },
            "properties": {
                "NAMN": "Stenbäck"
            }
        },
        {
            "type": "Feature",
            "geometry": {
                "type": "Point",
                "coordinates": [
                    17.1611,
                    60.6726
                ]
            },
            "properties": {
                "NAMN": "Stenebergsparken"
            }
        },
        {
            "type": "Feature",
            "geometry": {
                "type": "Point",
                "coordinates": [
                    17.1499,
                    60.6988
                ]
            },
            "properties": {
                "NAMN": "Stigsparken"
            }
        },
        {
            "type": "Feature",
            "geometry": {
                "type": "Point",
                "coordinates": [
                    17.2579,
                    60.6714
                ]
            },
            "properties": {
                "NAMN": "Storhagen"
            }
        },
        {
            "type": "Feature",
            "geometry": {
                "type": "Point",
                "coordinates": [
                    17.1467,
                    60.6522
                ]
            },
            "properties": {
                "NAMN": "Stormgatan"
            }
        },
        {
            "type": "Feature",
            "geometry": {
                "type": "Point",
                "coordinates": [
                    17.1422,
                    60.6748
                ]
            },
            "properties": {
                "NAMN": "Stortorget"
            }
        },
        {
            "type": "Feature",
            "geometry": {
                "type": "Point",
                "coordinates": [
                    17.1324,
                    60.6461
                ]
            },
            "properties": {
                "NAMN": "Stureborg"
            }
        },
        {
            "type": "Feature",
            "geometry": {
                "type": "Point",
                "coordinates": [
                    17.1606,
                    60.7093
                ]
            },
            "properties": {
                "NAMN": "Stålbogatan"
            }
        },
        {
            "type": "Feature",
            "geometry": {
                "type": "Point",
                "coordinates": [
                    17.1219,
                    60.6869
                ]
            },
            "properties": {
                "NAMN": "Södra Sätraängarna"
            }
        },
        {
            "type": "Feature",
            "geometry": {
                "type": "Point",
                "coordinates": [
                    17.0984,
                    60.7004
                ]
            },
            "properties": {
                "NAMN": "Tussilagovägen"
            }
        },
        {
            "type": "Feature",
            "geometry": {
                "type": "Point",
                "coordinates": [
                    17.1351,
                    60.6625
                ]
            },
            "properties": {
                "NAMN": "Vesslevägen"
            }
        },
        {
            "type": "Feature",
            "geometry": {
                "type": "Point",
                "coordinates": [
                    17.259,
                    60.6735
                ]
            },
            "properties": {
                "NAMN": "Vretlindan"
            }
        },
        {
            "type": "Feature",
            "geometry": {
                "type": "Point",
                "coordinates": [
                    17.1494,
                    60.7158
                ]
            },
            "properties": {
                "NAMN": "Åängsvägen"
            }
        },
        {
            "type": "Feature",
            "geometry": {
                "type": "Point",
                "coordinates": [
                    17.1034,
                    60.6972
                ]
            },
            "properties": {
                "NAMN": "Ängsullsvägen"
            }
        },
        {
            "type": "Feature",
            "geometry": {
                "type": "Point",
                "coordinates": [
                    17.1184,
                    60.6902
                ]
            },
            "properties": {
                "NAMN": "Norra Sätraängarna"
            }
        },
        {
            "type": "Feature",
            "geometry": {
                "type": "Point",
                "coordinates": [
                    17.1703,
                    60.7157
                ]
            },
            "properties": {
                "NAMN": "Varvaterrassen"
            }
        },
        {
            "type": "Feature",
            "geometry": {
                "type": "Point",
                "coordinates": [
                    17.1226,
                    60.6579
                ]
            },
            "properties": {
                "NAMN": "Almvägen"
            }
        },
        {
            "type": "Feature",
            "geometry": {
                "type": "Point",
                "coordinates": [
                    17.0335,
                    60.6532
                ]
            },
            "properties": {
                "NAMN": "Krogasvägen"
            }
        },
        {
            "type": "Feature",
            "geometry": {
                "type": "Point",
                "coordinates": [
                    17.1726,
                    60.7235
                ]
            },
            "properties": {
                "NAMN": "Åsvägen i Hille"
            }
        },
        {
            "type": "Feature",
            "geometry": {
                "type": "Point",
                "coordinates": [
                    17.1326,
                    60.6775
                ]
            },
            "properties": {
                "NAMN": "Nynäsparken"
            }
        },
        {
            "type": "Feature",
            "geometry": {
                "type": "Point",
                "coordinates": [
                    17.2085,
                    60.6675
                ]
            },
            "properties": {
                "NAMN": "Långbackavägen"
            }
        },
        {
            "type": "Feature",
            "geometry": {
                "type": "Point",
                "coordinates": [
                    17.2217,
                    60.6683
                ]
            },
            "properties": {
                "NAMN": "Myrparken"
            }
        },
        {
            "type": "Feature",
            "geometry": {
                "type": "Point",
                "coordinates": [
                    17.2368,
                    60.6627
                ]
            },
            "properties": {
                "NAMN": "Tranmur"
            }
        },
        {
            "type": "Feature",
            "geometry": {
                "type": "Point",
                "coordinates": [
                    16.9947,
                    60.642
                ]
            },
            "properties": {
                "NAMN": "Siporexparken"
            }
        },
        {
            "type": "Feature",
            "geometry": {
                "type": "Point",
                "coordinates": [
                    17.1616,
                    60.6993
                ]
            },
            "properties": {
                "NAMN": "Brännerigatan"
            }
        },
        {
            "type": "Feature",
            "geometry": {
                "type": "Point",
                "coordinates": [
                    17.1253,
                    60.6541
                ]
            },
            "properties": {
                "NAMN": "Höjersdalsparken"
            }
        },
        {
            "type": "Feature",
            "geometry": {
                "type": "Point",
                "coordinates": [
                    17.127,
                    60.6561
                ]
            },
            "properties": {
                "NAMN": "Videkullen"
            }
        },
        {
            "type": "Feature",
            "geometry": {
                "type": "Point",
                "coordinates": [
                    17.1383,
                    60.6595
                ]
            },
            "properties": {
                "NAMN": "Korpvägen"
            }
        },
        {
            "type": "Feature",
            "geometry": {
                "type": "Point",
                "coordinates": [
                    17.1144,
                    60.6945
                ]
            },
            "properties": {
                "NAMN": "Ulvsmygen"
            }
        },
        {
            "type": "Feature",
            "geometry": {
                "type": "Point",
                "coordinates": [
                    17.1502,
                    60.703
                ]
            },
            "properties": {
                "NAMN": "Sidlångsvägen"
            }
        },
        {
            "type": "Feature",
            "geometry": {
                "type": "Point",
                "coordinates": [
                    17.1424,
                    60.7049
                ]
            },
            "properties": {
                "NAMN": "Stigshöjden"
            }
        },
        {
            "type": "Feature",
            "geometry": {
                "type": "Point",
                "coordinates": [
                    16.9749,
                    60.6453
                ]
            },
            "properties": {
                "NAMN": "Sågvreten"
            }
        },
        {
            "type": "Feature",
            "geometry": {
                "type": "Point",
                "coordinates": [
                    16.9856,
                    60.634
                ]
            },
            "properties": {
                "NAMN": "Spikåsvägen"
            }
        },
        {
            "type": "Feature",
            "geometry": {
                "type": "Point",
                "coordinates": [
                    17.0427,
                    60.9316
                ]
            },
            "properties": {
                "NAMN": "Stenvägen"
            }
        },
        {
            "type": "Feature",
            "geometry": {
                "type": "Point",
                "coordinates": [
                    17.0676,
                    60.8956
                ]
            },
            "properties": {
                "NAMN": "Råvägen"
            }
        },
        {
            "type": "Feature",
            "geometry": {
                "type": "Point",
                "coordinates": [
                    17.1861,
                    60.7676
                ]
            },
            "properties": {
                "NAMN": "Björke"
            }
        },
        {
            "type": "Feature",
            "geometry": {
                "type": "Point",
                "coordinates": [
                    16.897,
                    60.6153
                ]
            },
            "properties": {
                "NAMN": "Pilparken"
            }
        },
        {
            "type": "Feature",
            "geometry": {
                "type": "Point",
                "coordinates": [
                    17.1785,
                    60.6749
                ]
            },
            "properties": {
                "NAMN": "Hammarparken"
            }
        },
        {
            "type": "Feature",
            "geometry": {
                "type": "Point",
                "coordinates": [
                    17.1418,
                    60.6521
                ]
            },
            "properties": {
                "NAMN": "Tellusparken"
            }
        },
        {
            "type": "Feature",
            "geometry": {
                "type": "Point",
                "coordinates": [
                    17.0989,
                    60.687
                ]
            },
            "properties": {
                "NAMN": "Pingeltorp"
            }
        },
        {
            "type": "Feature",
            "geometry": {
                "type": "Point",
                "coordinates": [
                    17.1451,
                    60.6711
                ]
            },
            "properties": {
                "NAMN": "Klockgjutareparken"
            }
        },
        {
            "type": "Feature",
            "geometry": {
                "type": "Point",
                "coordinates": [
                    17.1395,
                    60.6792
                ]
            },
            "properties": {
                "NAMN": "Esplanaden"
            }
        },
        {
            "type": "Feature",
            "geometry": {
                "type": "Point",
                "coordinates": [
                    17.1582,
                    60.6427
                ]
            },
            "properties": {
                "NAMN": "Skogslekplatsen Hemlingby"
            }
        },
        {
            "type": "Feature",
            "geometry": {
                "type": "Point",
                "coordinates": [
                    17.1804,
                    60.7066
                ]
            },
            "properties": {
                "NAMN": "Lindbacka"
            }
        },
        {
            "type": "Feature",
            "geometry": {
                "type": "Point",
                "coordinates": [
                    17.1651,
                    60.6775
                ]
            },
            "properties": {
                "NAMN": "Ahlgrensparken lekplats"
            }
        },
        {
            "type": "Feature",
            "geometry": {
                "type": "Point",
                "coordinates": [
                    17.1418,
                    60.6493
                ]
            },
            "properties": {
                "NAMN": "Andersbergs gym"
            }
        },
        {
            "type": "Feature",
            "geometry": {
                "type": "Point",
                "coordinates": [
                    16.9961,
                    60.6418
                ]
            },
            "properties": {
                "NAMN": "Siporexparken utegym"
            }
        }
    ]
}
