{"type":"FeatureCollection","name":"pulkabackar","features":[{"type":"Feature","geometry":{"type":"Point","coordinates":[17.0907,60.6921]},"properties":{"OBJEKTID":98,"NAMN":"Sätra Vattentorn"}},{"type":"Feature","geometry":{"type":"Point","coordinates":[17.1012,60.688]},"properties":{"OBJEKTID":99,"NAMN":"Pingeltorp"}},{"type":"Feature","geometry":{"type":"Point","coordinates":[17.1023,60.6961]},"properties":{"OBJEKTID":100,"NAMN":"Ängsull"}},{"type":"Feature","geometry":{"type":"Point","coordinates":[17.0725,60.6782]},"properties":{"OBJEKTID":101,"NAMN":"Stenbäcken"}},{"type":"Feature","geometry":{"type":"Point","coordinates":[17.0619,60.67]},"properties":{"OBJEKTID":102,"NAMN":"Krönet"}},{"type":"Feature","geometry":{"type":"Point","coordinates":[17.0642,60.6672]},"properties":{"OBJEKTID":103,"NAMN":"Durovägen"}},{"type":"Feature","geometry":{"type":"Point","coordinates":[16.9952,60.6423]},"properties":{"OBJEKTID":104,"NAMN":"Siporexparken"}},{"type":"Feature","geometry":{"type":"Point","coordinates":[17.1396,60.6488]},"properties":{"OBJEKTID":105,"NAMN":"Andersberg"}},{"type":"Feature","geometry":{"type":"Point","coordinates":[17.1832,60.6721]},"properties":{"OBJEKTID":106,"NAMN":"Herrgårdshagen"}},{"type":"Feature","geometry":{"type":"Point","coordinates":[17.1686,60.7165]},"properties":{"OBJEKTID":107,"NAMN":"Varvaterassen"}},{"type":"Feature","geometry":{"type":"Point","coordinates":[17.1664,60.735]},"properties":{"OBJEKTID":108,"NAMN":"Västerbacken"}},{"type":"Feature","geometry":{"type":"Point","coordinates":[17.2088,60.6669]},"properties":{"OBJEKTID":109,"NAMN":"Långbackavägen"}},{"type":"Feature","geometry":{"type":"Point","coordinates":[17.2218,60.6674]},"properties":{"OBJEKTID":110,"NAMN":"Upplandsleden"}},{"type":"Feature","geometry":{"type":"Point","coordinates":[17.2349,60.66]},"properties":{"OBJEKTID":111,"NAMN":"Hövdingavägen"}},{"type":"Feature","geometry":{"type":"Point","coordinates":[17.0916,60.6985]},"properties":{"OBJEKTID":112,"NAMN":"Vinbärsgården"}},{"type":"Feature","geometry":{"type":"Point","coordinates":[17.0898,60.701]},"properties":{"OBJEKTID":113,"NAMN":"Vinbärsvägen"}},{"type":"Feature","geometry":{"type":"Point","coordinates":[17.1815,60.7074]},"properties":{"OBJEKTID":114,"NAMN":"Lindbacka"}},{"type":"Feature","geometry":{"type":"Point","coordinates":[17.1426,60.6523]},"properties":{"OBJEKTID":115,"NAMN":"Andersberg rymden"}},{"type":"Feature","geometry":{"type":"Point","coordinates":[17.0124,60.641]},"properties":{"OBJEKTID":116,"NAMN":"Skolvägen"}},{"type":"Feature","geometry":{"type":"Point","coordinates":[17.2215,60.672]},"properties":{"OBJEKTID":118,"NAMN":"Bomhus vattentorn"}},{"type":"Feature","geometry":{"type":"Point","coordinates":[17.1204,60.6866]},"properties":{"OBJEKTID":161,"NAMN":"Sätraängarna"}},{"type":"Feature","geometry":{"type":"Point","coordinates":[17.168,60.65]},"properties":{"OBJEKTID":165,"NAMN":"Lilla Pulkabacken Hemlingby"}},{"type":"Feature","geometry":{"type":"Point","coordinates":[17.1682,60.6505]},"properties":{"OBJEKTID":166,"NAMN":"Stora pulkabacken Hemlingby"}},{"type":"Feature","geometry":{"type":"Point","coordinates":[17.3671,60.6504]},"properties":{"OBJEKTID":188,"NAMN":"Ytterharnäs"}}]}